objectid,fod_id,fpa_id,source_system_type,source_system,nwcg_reporting_agency,nwcg_reporting_unit_id,nwcg_reporting_unit_name,source_reporting_unit,source_reporting_unit_name,local_fire_report_id,local_incident_id,fire_code,fire_name,ics_209_incident_number,ics_209_name,mtbs_id,mtbs_fire_name,complex_name,fire_year,discovery_date,discovery_doy,discovery_time,stat_cause_descr,cont_date,cont_doy,cont_time,fire_size,fire_size_class,latitude,longitude,owner_code,owner_descr,state,county,fips_code,fips_name,year,month,doy,fire_size_log
483496,520377,SFO-ME00840505-05220019,NONFED,ST-NASF,ST/C&L,USMEMES,Maine Forest Service,MEMES,Maine Forest Service,NA,NA,NA,NA,NA,NA,NA,NA,NA,2005,8687-05-24,107,NA,Arson,NA,NA,NA,0.1,A,44.66111002,-70.14166999,14,MISSING/NOT SPECIFIED,ME,Franklin,007,Franklin,8687,May,144,0.09531017980432487
770882,873104,ODF-4108,NONFED,ST-ORORS,ST/C&L,USOR582S,Santiam Unit,ORODF-582,Santiam Unit,080,4108,NA,ELKHORN RD. STOCK PILE,NA,NA,NA,NA,NA,1993,8675-11-09,276,NA,Arson,2449263.5,276,NA,0.03,A,44.80834,-122.39939,1,BLM,OR,22,043,Linn,8675,Nov,313,0.0295588022415444
1767935,300112327,SFO-2014GAGAS-FY2014-Toombs-026,NONFED,ST-NASF,ST/C&L,USGAGAS,Georgia Forestry Commission,GAGAS,Georgia Forestry Commission,NA,FY2014-Toombs-026,NA,FY2014-TOOMBS-026,NA,NA,NA,NA,NA,2014,8696-03-17,40,2113,Arson,2456697.5,40,2151,0.14,A,32.05563889,-82.32175,8,PRIVATE,GA,Toombs              ,279,Toombs,8696,Mar,77,0.1310282624064041
1171503,1422602,MSARCH_42700,NONFED,ST-MSMSS,ST/C&L,USMSMSS,Mississippi Forestry Commission,MSMSS,Mississippi Forestry Commission,NA,2,NA,NA,NA,NA,NA,NA,NA,1999,8681-02-17,12,2150,Arson,2451190.5,12,2325,3,B,31.68119552,-89.71965855,14,MISSING/NOT SPECIFIED,MS,Covington,031,Covington,8681,Feb,48,1.3862943611198906
1394385,19090263,SFO-GA-RIC-39-4/8/1995-1330,NONFED,ST-GAGAS,ST/C&L,USGAGAS,Georgia Forestry Commission,GAGAS,Georgia Forestry Commission,NA,39,NA,NA,NA,NA,NA,NA,NA,1995,8677-05-14,98,1330,Arson,2449815.5,98,1455,1.1,B,33.435,-82.0919,8,PRIVATE,GA,Richmond            ,245,Richmond,8677,May,134,0.7419373447293773
814560,921630,STATE_MS_61660,NONFED,ST-MSMSS,ST/C&L,USMSMSS,Mississippi Forestry Commission,MS Southeast,MSS Southeast District,NA,6-4213,NA,NA,NA,NA,NA,NA,NA,2005,8687-03-05,27,NA,Arson,NA,NA,NA,2,B,31.2508,-88.7286,14,MISSING/NOT SPECIFIED,MS,NA,NA,NA,8687,Mar,64,1.0986122886681098
690402,768095,MSARCH_4789,NONFED,ST-MSMSS,ST/C&L,USMSMSS,Mississippi Forestry Commission,MSMSS,Mississippi Forestry Commission,NA,NA,NA,NA,NA,NA,NA,NA,NA,1993,8675-04-15,68,2210,Arson,2449055.5,68,2230,1,B,34.9396828,-88.64838995,14,MISSING/NOT SPECIFIED,MS,Alcorn,003,Alcorn,8675,Apr,105,0.6931471805599453
868383,990757,SWRA_GA_46619,NONFED,ST-GAGAS,ST/C&L,USGAGAS,Georgia Forestry Commission,GAGAS21,GAS Unit 21,NA,5.1369,NA,NA,NA,NA,NA,NA,NA,1998,8681-01-09,338,NA,Arson,NA,NA,NA,0.2,A,34.91,-85.1369,14,MISSING/NOT SPECIFIED,GA,NA,NA,NA,8681,Jan,9,0.18232155679395465
1109424,1350969,CDF_2000_54_2215_009039      ,NONFED,ST-CACDF,ST/C&L,USCABTU,Butte Unit,CABTU,Butte Unit,NA,009039      ,NA,BIDWELL                  ,NA,NA,NA,NA,NA,2000,8682-09-22,229,NA,Arson,NA,NA,NA,0.1,A,39.73305555,-121.85305555,14,MISSING/NOT SPECIFIED,CA,NA,NA,NA,8682,Sep,265,0.09531017980432487
1383531,19079273,SFO-GA-CHA-52-3/16/1995-2000,NONFED,ST-GAGAS,ST/C&L,USGAGAS,Georgia Forestry Commission,GAGAS,Georgia Forestry Commission,NA,52,NA,NA,NA,NA,NA,NA,NA,1995,8677-04-21,75,2000,Arson,2449792.5,75,2240,3.61,B,34.5845,-85.4863,8,PRIVATE,GA,Chattooga           ,055,Chattooga,8677,Apr,111,1.5282278570085572
1648157,201777179,W-664326,FED,DOI-WFMI,BIA,USOKOMA,Okmulgee Field Office,OKOMA,Okmulgee Field Office,29,NA,H05T,HANNA #16,NA,NA,NA,NA,NA,2013,8695-11-02,269,1500,Arson,2456561.5,269,1500,0.1,A,35.2025,-95.8028,2,BIA,OK,NA,NA,NA,8695,Nov,306,0.09531017980432487
1617308,201651944,SFO-NC-2012-NCST-012-20120019,NONFED,ST-NASF,ST/C&L,USNCNCS,North Carolina Forest Service,NCNCS,North Carolina State Division of Forest Resouces,NA,NCST-012-20120019,NA,WEST END #1,NA,NA,NA,NA,NA,2012,8694-04-17,71,0030,Arson,2455997.5,71,0100,0.2,A,35.66666667,-81.83333333,8,PRIVATE,NC,Burke,023,Burke,8694,Apr,107,0.18232155679395465
857745,979757,SWRA_AL_53271,NONFED,ST-ALALS,ST/C&L,USALALS,Alabama Forestry Commission,ALALS3,AFC District 3,NA,85.822,NA,NA,NA,NA,NA,NA,NA,2002,8684-04-10,64,NA,Arson,NA,NA,NA,50,C,32.3267,-85.8222,14,MISSING/NOT SPECIFIED,AL,NA,NA,NA,8684,Apr,101,3.9318256327243257
1357005,1837990,SFO-TN-2007-3548,NONFED,ST-NASF,ST/C&L,USTNTNS,Tennessee Division of Forestry,TDA,Tennessee Department of Agriculture,NA,3548,NA,GAP CHAPEL,NA,NA,NA,NA,NA,2007,8689-03-30,53,1715,Arson,2454153.5,53,NA,2.1,B,36.523333,-83.19117,8,PRIVATE,TN,HANCOCK,067,Hancock,8689,Mar,89,1.1314021114911006
1213271,1470449,W-602093,FED,DOI-WFMI,BIA,USWIGLA,Great Lakes Agency,WIGLA,Great Lakes Agency,17,NA,FD6N,PLAYGROUND,NA,NA,NA,NA,NA,2010,8692-06-01,116,1952,Arson,2455312.5,116,2025,0.1,A,45.981489,-89.877474,2,BIA,WI,NA,NA,NA,8692,Jun,153,0.09531017980432487
1837113,300259727,SFO-2015RI-RISRI-91-15,NONFED,ST-NASF,ST/C&L,USRIRIS,Rhode Island Division of Forest Environment,RIRIS,Rhode Island Division of Forest Environment,NA,RI-91-15,NA,NA,NA,NA,NA,NA,NA,2015,8697-12-23,321,1945,Arson,2457343.5,321,2100,0.2,A,41.74539,-71.318199,8,PRIVATE,RI,Bristol,001,Bristol,8697,Dec,357,0.18232155679395465
460447,494777,SFO-GA0456-39-055-0003-07,NONFED,ST-NASF,ST/C&L,USGAGAS,Georgia Forestry Commission,GA Rome,"GAS Coosa District, Rome Office",NA,NA,NA,NA,NA,NA,NA,NA,NA,2009,8691-08-16,191,NA,Arson,NA,NA,NA,0.6,B,34.52977879,-85.43910876,14,MISSING/NOT SPECIFIED,GA,Chattooga,055,Chattooga,8691,Aug,228,0.4700036292457355
83693,84644,FS-309408,FED,FS-FIRESTAT,FS,USNCNCF,National Forests in North Carolina,0811,National Forests in North Carolina,49,NA,NA,RIPSHIN,NA,NA,NA,NA,NA,1995,8677-05-16,100,1030,Arson,2449817.5,100,1800,4,B,35.94,-81.845,5,USFS,NC,NA,NA,NA,8677,May,136,1.6094379124341003
1348392,1828179,SFO-NY-NY5218-2001-0100265,NONFED,ST-NASF,ST/C&L,USNYNYX,Fire Department of New York,NY5218,Fire Department of New York,NA,NY5218-2001-0100265,NA,NA,NA,NA,NA,NA,NA,2001,8683-11-15,282,1413,Arson,2452191.5,282,1413,0.1,A,40.83308953,-72.917004,14,MISSING/NOT SPECIFIED,NY,SUFFOLK,103,Suffolk,8683,Nov,319,0.09531017980432487
1370829,15041640,CTS-126-1992-143,NONFED,ST-CTCTS,ST/C&L,USCTCTS,Connecticut Division of Forestry,CTCTS,Connecticut Division of Forestry,NA,NA,NA,NA,NA,NA,NA,NA,NA,1992,8674-07-21,166,2216,Campfire,NA,NA,NA,0.1,A,41.3164856,-73.0931641,14,MISSING/NOT SPECIFIED,CT,Fairfield,001,Fairfield,8674,Jul,202,0.09531017980432487
239437,243853,W-261457,FED,DOI-WFMI,NPS,USCOGSP,Great Sand Dunes National Park and Preserve,COGSP,Great Sand Dunes National Monument,1,NA,NA,GRACE,NA,NA,NA,NA,NA,1998,8680-06-20,135,2300,Campfire,2450949.5,136,1600,0.1,A,37.7944,-105.5078,3,NPS,CO,NA,NA,NA,8680,Jun,172,0.09531017980432487
115452,116631,FS-341668,FED,FS-FIRESTAT,FS,USCAMDF,Modoc National Forest,0509,Modoc National Forest,95,NA,NA,LAVA,NA,NA,NA,NA,NA,1999,8681-11-25,293,0900,Campfire,2451471.5,293,1000,0.2,A,41.40611111,-121.34333333,5,USFS,CA,NA,NA,NA,8681,Nov,329,0.18232155679395465
368744,380373,FWS-2005AKTERB62S,FED,FWS-FMIS,FWS,USAKTER,Tetlin National Wildlife Refuge,AKTER,Tetlin National Wildlife Refuge,NA,NA,B62S,162 DESPER CREEK ISLAND,NA,NA,NA,NA,NA,2005,8687-10-18,254,1300,Campfire,2453626.5,256,1300,0.3,B,62.6622326,-141.1256077,4,FWS,AK,NA,NA,NA,8687,Oct,291,0.26236426446749106
1146334,1397084,ODF-87001,NONFED,ST-ORORS,ST/C&L,USOR553S,Toledo Unit,ORODF-553,Toledo Unit,010,87001,NA,SCHOONER CREEK,NA,NA,NA,NA,NA,2010,8692-09-12,219,NA,Campfire,2455415.5,219,NA,0.02,A,44.96056,-123.90778,8,PRIVATE,OR,21,041,Lincoln,8692,Sep,256,0.019802627296179712
576538,622959,SFO-SC02170707-7FF0684,NONFED,ST-NASF,ST/C&L,USSCSCS,South Carolina Forestry Commission,SCSCS,South Carolina Forestry Commission,NA,NA,NA,NA,NA,NA,NA,NA,NA,2007,8689-04-16,70,NA,Children,NA,NA,NA,1,B,34.27188001,-79.17416001,14,MISSING/NOT SPECIFIED,SC,Marion,067,Marion,8689,Apr,106,0.6931471805599453
1106607,1347507,CDF_1992_54_2235_336         ,NONFED,ST-CACDF,ST/C&L,USCAAEU,Amador-El Dorado Unit,CAAEU,Amador-El Dorado Unit,NA,336         ,NA,STARR                    ,NA,NA,NA,NA,NA,1992,8674-08-15,191,NA,Children,NA,NA,NA,0.1,A,38.605,-120.76805555,14,MISSING/NOT SPECIFIED,CA,NA,NA,NA,8674,Aug,227,0.09531017980432487
404812,438595,SFO-FL042004-02-0334,NONFED,ST-NASF,ST/C&L,USFLFLS,Florida Forest Service,FLFLS,Florida Forest Service,NA,02-0334,NA,NA,NA,NA,NA,NA,NA,2004,8686-04-29,83,NA,Children,NA,NA,NA,1.5,B,30.79027997,-85.80444999,14,MISSING/NOT SPECIFIED,FL,Washington,133,Washington,8686,Apr,119,0.9162907318741551
1675257,201839453,SFO-2013GAGAS-FY2013-Bryan North-008,NONFED,ST-NASF,ST/C&L,USGAGAS,Georgia Forestry Commission,GAGAS,Georgia Forestry Commission,NA,FY2013-Bryan North-008,NA,FY2013-BRYAN NORTH-008,NA,NA,NA,NA,NA,2013,8695-02-21,15,1543,Children,2456307.5,15,1620,0.5,B,32.18138889,-81.61638889,8,PRIVATE,GA,Bryan,029,Bryan,8695,Feb,52,0.4054651081081644
1346554,1826341,SFO-NY-NY3509-2002-0000256,NONFED,ST-NASF,ST/C&L,USNYNYX,Fire Department of New York,NY3509,Fire Department of New York,NA,NY3509-2002-0000256,NA,NA,NA,NA,NA,NA,NA,2002,8684-08-18,194,2126,Debris Burning,2452468.5,194,2126,0.1,A,43.01269297,-77.426397,14,MISSING/NOT SPECIFIED,NY,ONTARIO,069,Ontario,8684,Aug,231,0.09531017980432487
262452,267500,W-313659,FED,DOI-WFMI,BIA,USSDPRA,Pine Ridge Agency,SDPRA,Pine Ridge Agency,253,NA,NA,BAIL,NA,NA,NA,NA,NA,2000,8682-08-31,207,1730,Debris Burning,2451750.5,207,1830,0.1,A,43.2233,-102.2435,2,BIA,SD,NA,NA,NA,8682,Aug,243,0.09531017980432487
459267,493592,SFO-GA0456-36-175-0021-07,NONFED,ST-NASF,ST/C&L,USGAGAS,Georgia Forestry Commission,GA McRae,"GAS Ogeechee District, McRae Office",NA,NA,NA,NA,NA,NA,NA,NA,NA,2009,8691-08-30,205,NA,Debris Burning,NA,NA,NA,0.02,A,32.55922603,-82.85548271,14,MISSING/NOT SPECIFIED,GA,Laurens,175,Laurens,8691,Aug,242,0.019802627296179712
485466,522360,SFO-MI0447-2009040004,NONFED,ST-NASF,ST/C&L,USMIMIS,Michigan Department of Natural Resources,MIMIS,Michigan Department of Natural Resources,NA,NA,NA,NA,NA,NA,NA,NA,NA,2009,8691-05-25,108,NA,Debris Burning,NA,NA,NA,0.5,B,44.90627,-83.44508,14,MISSING/NOT SPECIFIED,MI,Alpena,007,Alpena,8691,May,145,0.4054651081081644
923440,1050803,SWRA_SC_64435,NONFED,ST-SCSCS,ST/C&L,USSCSCS,South Carolina Forestry Commission,SCSCS4,SCS Unit 4,NA,J938,NA,NA,NA,NA,NA,NA,NA,2001,8683-03-12,34,NA,Debris Burning,NA,NA,NA,0.5,B,33.7106,-79.8689,14,MISSING/NOT SPECIFIED,SC,NA,NA,NA,8683,Mar,71,0.4054651081081644
146101,147535,FS-374414,FED,FS-FIRESTAT,FS,USMOMTF,Mark Twain National Forest,0905,Mark Twain National Forest,51,NA,0504,FAIRVIEW,NA,NA,NA,NA,NA,2002,8684-05-06,90,1354,Debris Burning,2452364.5,90,1740,16.8,C,36.63444444,-92.92277778,13,STATE OR PRIVATE,MO,NA,NA,NA,8684,May,127,2.8791984572980396
198515,201178,W-337092,FED,DOI-WFMI,BIA,USNMNPA,Northern Pueblos Agency,NMNPA,Northern Pueblos Agency,13,NA,NA,CHAMITA,NA,NA,NA,NA,NA,1994,8676-04-22,76,1300,Debris Burning,2449428.5,76,1350,1,B,36.057,-106.0867,2,BIA,NM,NA,NA,NA,8676,Apr,113,0.6931471805599453
1756521,300098859,SFO-2014ME_MES41104016,NONFED,ST-NASF,ST/C&L,USMEMES,Maine Forest Service,ME_MES,Maine Forest Service,NA,41104016,NA,EAST RIVER,NA,NA,NA,NA,NA,2014,8696-05-28,112,1600,Debris Burning,2456769.5,112,1700,0.5,B,44.985806,-67.191778,14,MISSING/NOT SPECIFIED,ME,WASHINGTON,029,Washington,8696,May,149,0.4054651081081644
1379452,19075129,SFO-GA-CAN-58-4/12/1996-1600,NONFED,ST-GAGAS,ST/C&L,USGAGAS,Georgia Forestry Commission,GAGAS,Georgia Forestry Commission,NA,58,NA,NA,NA,NA,NA,NA,NA,1996,8678-05-19,103,1600,Debris Burning,2450185.5,103,1800,7,B,32.3894,-81.9524,8,PRIVATE,GA,Candler             ,043,Candler,8678,May,139,2.0794415416798357
1822242,300241133,SFO-2015ILDNR11130022,NONFED,ST-NASF,ST/C&L,USILILS,Illinois Division of Forestry Resources,ILDNR,Illinois Department of Natural Resources,NA,11130022,NA,3232015,NA,NA,NA,NA,NA,2015,8697-04-28,82,1405,Debris Burning,2457104.5,82,1437,1,B,39.835781,-91.050073,14,MISSING/NOT SPECIFIED,IL,1,001,Adams,8697,Apr,118,0.6931471805599453
1826037,300245399,SFO-2015NY-NYSNYS-2015-0124,NONFED,ST-NASF,ST/C&L,USNYNYS,New York Forest Rangers,NYNYS,New York Forest Rangers,NA,NYS-2015-0124,NA,WILSON HILL WMA,NA,NA,NA,NA,NA,2015,8697-06-27,142,1300,Debris Burning,2457165.5,143,2000,2,B,44.5467,-75.0184,7,STATE,NY,St Lawrence,089,St. Lawrence,8697,Jun,178,1.0986122886681098
984188,1113007,TFS_FL_69705,NONFED,ST-FLFLS,ST/C&L,USFLFLS,Florida Forest Service,FLFLS2,FLS Chipola Forestry Center,NA,0425,NA,NA,NA,NA,NA,NA,NA,2000,8682-07-15,160,NA,Debris Burning,NA,NA,NA,2,B,30.99,-86.28,14,MISSING/NOT SPECIFIED,FL,Walton,131,Walton,8682,Jul,196,1.0986122886681098
203821,206556,W-413501,FED,DOI-WFMI,BIA,USAZPMA,Pima Agency,AZPMA,Pima Agency,594,NA,NA,TAMARACK,NA,NA,NA,NA,NA,1993,8675-07-13,157,2125,Debris Burning,2449144.5,157,2223,2,B,33.2834,-112.1693,2,BIA,AZ,NA,NA,NA,8675,Jul,194,1.0986122886681098
918878,1046126,SWRA_SC_59758,NONFED,ST-SCSCS,ST/C&L,USSCSCS,South Carolina Forestry Commission,SCSCS5,SCS Unit 5,NA,D088,NA,NA,NA,NA,NA,NA,NA,2000,8682-11-19,287,NA,Debris Burning,NA,NA,NA,5,B,33.0919,-81.0403,14,MISSING/NOT SPECIFIED,SC,NA,NA,NA,8682,Nov,323,1.791759469228055
1819909,300238266,SFO-2015ARARSAFC32177,NONFED,ST-NASF,ST/C&L,USARARS,Arkansas Forestry Commission,ARARS,Arkansas Forestry Commission,NA,AFC32177,NA,NA,NA,NA,NA,NA,NA,2015,8697-03-22,45,1335,Debris Burning,2457067.5,45,1700,11,C,35.99461,-91.72825,8,PRIVATE,AR,NA,NA,NA,8697,Mar,81,2.4849066497880004
1762486,300105461,SFO-2014KYKYS11920149061,NONFED,ST-NASF,ST/C&L,USKYKYS,Kentucky Division of Forestry,KYKYS,Kentucky Division of Forestry,NA,11920149061,NA,BAKER BRANCH,NA,NA,NA,NA,NA,2014,8696-05-19,103,2000,Debris Burning,NA,NA,NA,2,B,37.422359,-83.030128,8,PRIVATE,KY,Knott,119,Knott,8696,May,140,1.0986122886681098
1325021,1803989,SFO-WV-1995-16109,NONFED,ST-NASF,ST/C&L,USWVWVS,West Virginia Division of Forestry,WVDOF,West Virginia Division of Forestry,NA,1995-16109,NA,ELK HILLS,NA,NA,NA,NA,NA,1995,8677-04-23,77,1615,Debris Burning,2449794.5,77,1615,1,B,38.40829794,-81.58117945,8,PRIVATE,WV,Kanawha,039,Kanawha,8677,Apr,113,0.6931471805599453
1439878,19914145,AL-TG-1996-188-002,NONFED,ST-ALALS,ST/C&L,USALALS,Alabama Forestry Commission,ALALS,Alabama Forestry Commission,NA,002,NA,NA,NA,NA,NA,NA,NA,1996,8678-08-12,188,1430,Debris Burning,NA,NA,NA,2,B,33.27688,-86.25382,14,MISSING/NOT SPECIFIED,AL,TG,121,Talladega,8678,Aug,224,1.0986122886681098
923087,1050449,SWRA_SC_64081,NONFED,ST-SCSCS,ST/C&L,USSCSCS,South Carolina Forestry Commission,SCSCS4,SCS Unit 4,NA,I499,NA,NA,NA,NA,NA,NA,NA,2001,8683-10-18,254,NA,Debris Burning,NA,NA,NA,0.5,B,34.1961,-79.7397,14,MISSING/NOT SPECIFIED,SC,NA,NA,NA,8683,Oct,291,0.4054651081081644
845052,966577,SWRA_AL_39799,NONFED,ST-ALALS,ST/C&L,USALALS,Alabama Forestry Commission,ALALS3,AFC District 3,NA,85.219,NA,NA,NA,NA,NA,NA,NA,1999,8681-10-23,260,NA,Debris Burning,NA,NA,NA,2.5,B,31.8794,-85.2197,14,MISSING/NOT SPECIFIED,AL,NA,NA,NA,8681,Oct,296,1.252762968495368
1164746,1415802,ALS-TUS-20060907-002,NONFED,ST-ALALS,ST/C&L,USALALS,Alabama Forestry Commission,ALTUS,AFC Tuscaloosa,002,TUS-20060907-002,NA,NA,NA,NA,NA,NA,NA,2006,8688-10-13,250,1535,Debris Burning,2453985.5,250,1720,24.4,C,33.802474,-88.221268,14,MISSING/NOT SPECIFIED,AL,Lamar,075,Lamar,8688,Oct,287,3.2347491740244907
1092494,1330836,CDF_1997_53_2209_113         ,NONFED,ST-CACDF,ST/C&L,USCACZU,San Mateo-Santa Cruz Unit,CACZU,San Mateo-Santa Cruz Unit,NA,113         ,NA,HECKER                   ,NA,NA,NA,NA,NA,1997,8679-05-05,88,NA,Debris Burning,NA,NA,NA,0.2,A,36.975,-121.72,14,MISSING/NOT SPECIFIED,CA,NA,NA,NA,8679,May,125,0.18232155679395465
1351129,1830964,SFO-NY-NYS-1998-7,NONFED,ST-NASF,ST/C&L,USNYNYS,New York Forest Rangers,NYNYS,New York Forest Rangers,NA,NYS-1998-7,NA,NA,NA,NA,NA,NA,NA,1998,8680-05-03,87,NA,Debris Burning,NA,NA,NA,2,B,42.235582,-77.543904,14,MISSING/NOT SPECIFIED,NY,STEUBEN,101,Steuben,8680,May,124,1.0986122886681098
612651,660596,SFO-TX01430698-11162878,NONFED,ST-NASF,ST/C&L,USTXWAS,Texas Forest Service - Woodville Area,TXWAS,Texas Forest Service - Woodville Area,NA,NA,NA,NA,NA,NA,NA,NA,NA,1998,8680-08-13,189,NA,Debris Burning,NA,NA,NA,1,B,30.90625,-94.37708,14,MISSING/NOT SPECIFIED,TX,Tyler,457,Tyler,8680,Aug,226,0.6931471805599453
854063,975943,SWRA_AL_49370,NONFED,ST-ALALS,ST/C&L,USALALS,Alabama Forestry Commission,ALALS2,AFC District 2,NA,86.562,NA,NA,NA,NA,NA,NA,NA,2001,8683-12-06,303,NA,Debris Burning,NA,NA,NA,4,B,33.1611,-86.5622,14,MISSING/NOT SPECIFIED,AL,NA,NA,NA,8683,Dec,340,1.6094379124341003
1536281,201391998,TFS-TXFD2009-213186,NONFED,ST-TXTXS,ST/C&L,USTXTXS,Texas A & M Forest Service,TXVFD,Lakeside Village Area VFD,NA,213186,NA,CR 1386,NA,NA,NA,NA,NA,2009,8691-08-02,177,NA,Debris Burning,NA,NA,NA,1,B,31.97984721,-97.47886648,13,STATE OR PRIVATE,TX,Bosque,035,Bosque,8691,Aug,214,0.6931471805599453
837938,959255,SWRA_AL_32414,NONFED,ST-ALALS,ST/C&L,USALALS,Alabama Forestry Commission,ALALS3,AFC District 3,NA,86.135,NA,NA,NA,NA,NA,NA,NA,1997,8680-02-06,365,NA,Debris Burning,NA,NA,NA,0.8,B,32.615,-86.1358,14,MISSING/NOT SPECIFIED,AL,NA,NA,NA,8680,Feb,37,0.5877866649021191
913500,1040655,SWRA_SC_54286,NONFED,ST-SCSCS,ST/C&L,USSCSCS,South Carolina Forestry Commission,SCSCS5,SCS Unit 5,NA,6996,NA,NA,NA,NA,NA,NA,NA,1999,8681-02-21,16,NA,Debris Burning,NA,NA,NA,2,B,32.6014,-80.7883,14,MISSING/NOT SPECIFIED,SC,NA,NA,NA,8681,Feb,52,1.0986122886681098
621628,670282,SFO-TX02240705-25468,NONFED,ST-NASF,ST/C&L,USTXTXS,Texas A & M Forest Service,TXTXS,Texas Forest Service,NA,NA,NA,NA,NA,NA,NA,NA,NA,2005,8688-02-03,362,NA,Debris Burning,NA,NA,NA,1,B,32.36799998,-100.83260002,14,MISSING/NOT SPECIFIED,TX,Mitchell,335,Mitchell,8688,Feb,34,0.6931471805599453
1071346,1306791,CDF_2010_56_2230_011011      ,NONFED,ST-CACDF,ST/C&L,USCAFKU,Fresno-Kings Unit,CAFKU,CDF - Fresno-Kings Unit,NA,011011      ,NA,DINUBA                   ,NA,NA,NA,NA,NA,2010,8692-10-31,268,NA,Debris Burning,NA,NA,NA,6,B,36.59111111,-119.80388888,14,MISSING/NOT SPECIFIED,CA,NA,NA,NA,8692,Oct,305,1.9459101490553132
1743957,300083282,SFO-2014TXLFDX518600,NONFED,ST-NASF,ST/C&L,USTXTXS,Texas A & M Forest Service,TXLFDX,Local Fire Department,NA,518600,NA,1500 HWY 68,NA,NA,NA,NA,NA,2014,8696-08-08,184,NA,Equipment Use,NA,NA,NA,5,B,33.465448,-96.144964,14,MISSING/NOT SPECIFIED,TX,Fannin,147,Fannin,8696,Aug,221,1.791759469228055
1072022,1307492,CDF_1993_56_2230_12507       ,NONFED,ST-CACDF,ST/C&L,USCAFKU,Fresno-Kings Unit,CAFKU,CDF - Fresno-Kings Unit,NA,12507       ,NA,FKU 12287                ,NA,NA,NA,NA,NA,1993,8675-12-27,324,NA,Equipment Use,NA,NA,NA,0.1,A,36.81611111,-119.6,14,MISSING/NOT SPECIFIED,CA,NA,NA,NA,8675,Dec,361,0.09531017980432487
987491,1116384,TFS_FL_75908,NONFED,ST-FLFLS,ST/C&L,USFLFLS,Florida Forest Service,FLFLS16,FLS Okeechobee District,NA,0074,NA,NA,NA,NA,NA,NA,NA,2000,8682-04-15,69,NA,Equipment Use,NA,NA,NA,0.1,A,27.25,-80.82,14,MISSING/NOT SPECIFIED,FL,Okeechobee,093,Okeechobee,8682,Apr,105,0.09531017980432487
1410897,19106935,SFO-GA-EAR-2-7/25/1995-2049,NONFED,ST-GAGAS,ST/C&L,USGAGAS,Georgia Forestry Commission,GAGAS,Georgia Forestry Commission,NA,2,NA,NA,NA,NA,NA,NA,NA,1995,8677-08-30,206,2049,Equipment Use,2449923.5,206,2123,0.19,A,31.3447,-84.8965,14,MISSING/NOT SPECIFIED,GA,Early               ,099,Early,8677,Aug,242,0.173953307123438
1233119,1633388,SFO-AZ-020138,NONFED,ST-NASF,ST/C&L,USAZAZS,Arizona State Forestry Division - State Office,AZAZS,Arizona State Forestry Division - State Office,NA,AZ-020138,NA,PANTHER,NA,NA,NA,NA,NA,2002,8684-04-16,70,1100,Equipment Use,NA,NA,NA,0.25,A,32.6617,-111.0427,14,MISSING/NOT SPECIFIED,AZ,NA,NA,NA,8684,Apr,107,0.22314355131420976
1857914,300291671,SFO-2015NC-NCSNCST-049-FY2016-0005,NONFED,ST-NASF,ST/C&L,USNCNCS,North Carolina Forest Service,NCNCS,North Carolina Forest Service,NA,NCST-049-FY2016-0005,NA,MANESS HAY BALES,NA,NA,NA,NA,NA,2015,8697-09-20,227,1145,Equipment Use,2457249.5,227,1206,0.24,A,35.889676,-80.766009,14,MISSING/NOT SPECIFIED,NC,Iredell,097,Iredell,8697,Sep,263,0.2151113796169455
879046,1001651,SWRA_GA_57515,NONFED,ST-GAGAS,ST/C&L,USGAGAS,Georgia Forestry Commission,GAGAS28,GAS Unit 28,NA,3.1714,NA,NA,NA,NA,NA,NA,NA,1999,8681-10-01,238,NA,Equipment Use,NA,NA,NA,0.1,A,31.7211,-83.1714,14,MISSING/NOT SPECIFIED,GA,NA,NA,NA,8681,Oct,274,0.09531017980432487
1471899,201131247,ODF-89498,NONFED,ST-ORORS,ST/C&L,USOR722S,Bridge Unit,ORODF-722,Bridge Unit,108,89498,NA,NORWAY,NA,NA,NA,NA,NA,2011,8693-10-07,244,NA,Equipment Use,2455805.5,244,NA,0.08,A,43.10861,-124.16194,14,MISSING/NOT SPECIFIED,OR,6,011,Coos,8693,Oct,280,0.07696104113612832
1734430,300023866,W-668005,FED,DOI-WFMI,BLM,USORMED,Medford District,ORMED,Medford District,NA,NA,14TF,MEDCO POND,NA,NA,NA,NA,NA,2014,8696-07-14,159,1400,Equipment Use,2456820.5,163,0930,0.1,A,42.6512,-122.4398,1,BLM,OR,Jackson,029,Jackson,8696,Jul,196,0.09531017980432487
1355716,1836624,SFO-TN-2007-2222,NONFED,ST-NASF,ST/C&L,USTNTNS,Tennessee Division of Forestry,TDA,Tennessee Department of Agriculture,NA,2222,NA,DOZER BLADE FIRE,NA,NA,NA,NA,NA,2007,8689-09-28,235,1620,Equipment Use,2454335.5,235,NA,0.1,A,35.525683,-87.40205,8,PRIVATE,TN,LEWIS,101,Lewis,8689,Sep,271,0.09531017980432487
110773,111927,FS-336938,FED,FS-FIRESTAT,FS,USIDIPF,Idaho Panhandle National Forest,0104,Idaho Panhandle National Forest,39,NA,NA,WEST FORK MERRY 17B,NA,NA,NA,NA,NA,1998,8680-09-05,212,1251,Lightning,2451025.5,212,1938,0.1,A,47.08,-116.24166667,5,USFS,ID,79,079,Shoshone,8680,Sep,249,0.09531017980432487
353230,362997,W-255912,FED,DOI-WFMI,NPS,USUTZIP,Zion National Park,UTZIP,Zion National Park,37,NA,NA,FOWL,NA,NA,NA,NA,NA,2001,8683-09-10,216,1100,Lightning,2452125.5,216,1900,0.2,A,37.38163,-113.00047000000001,3,NPS,UT,NA,NA,NA,8683,Sep,253,0.18232155679395465
355197,365109,W-205283,FED,DOI-WFMI,NPS,USCAJTP,Joshua Tree National Monument,CAJTP,Joshua Tree National Monument,8,NA,NA,INSPERATIO,NA,NA,NA,NA,NA,2000,8682-10-14,251,1740,Lightning,2451795.5,252,0024,0.1,A,33.93331,-116.18414,3,NPS,CA,NA,NA,NA,8682,Oct,287,0.09531017980432487
20605,20707,FS-1451117,FED,FS-FIRESTAT,FS,USUTMLF,Manti-Lasal National Forest,0410,Manti-Lasal National Forest,15,UTMLF7143,C65C,BROWNELL,NA,NA,NA,NA,NA,2007,8689-08-16,192,2100,Lightning,2454292.5,192,2200,0.1,A,38.43611111,-109.32305556,5,USFS,UT,37,037,San Juan,8689,Aug,228,0.09531017980432487
1793210,300204518,FS-6340525,FED,FS-FIRESTAT,FS,USCASHF,Shasta-Trinity National Forest,0514,Shasta-Trinity National Forest,113,17,EK15,GLADE,NA,NA,NA,NA,NA,2015,8697-08-26,202,0930,Lightning,2457224.5,202,1225,0.56,B,40.4125,-123.2325,5,USFS,CA,105,105,Trinity,8697,Aug,238,0.44468582126144574
854,866,FS-1420701,FED,FS-FIRESTAT,FS,USCAINF,Inyo National Forest,0504,Inyo National Forest,50,INF880,BE0E,ROUND,NA,NA,NA,NA,NA,2005,8687-09-15,221,1436,Lightning,2453591.5,221,1830,0.25,A,37.60027778,-118.64111111,5,USFS,CA,NA,NA,NA,8687,Sep,258,0.22314355131420976
129357,130614,FS-355898,FED,FS-FIRESTAT,FS,USCOSJF,San Juan National Forest,0213,San Juan National Forest,143,NA,NA,ORPHAN BUTTE,NA,NA,NA,NA,NA,2000,8682-09-30,237,1000,Lightning,2451782.5,239,1530,0.3,B,37.52277778,-108.00361111,5,USFS,CO,NA,NA,NA,8682,Sep,273,0.26236426446749106
8350,8391,FS-1434809,FED,FS-FIRESTAT,FS,USCOARF,Arapaho & Roosevelt National Forests/Pawnee National Grassland,0210,Arapaho-Roosevelt National Forest,23,CO-ARF-095,CQ31,PRICKLEY PEAR,NA,NA,NA,NA,NA,2006,8688-07-24,169,2300,Lightning,2453906.5,171,0945,0.8,B,40.90611111,-105.52888889,5,USFS,CO,69,069,Larimer,8688,Jul,206,0.5877866649021191
1355736,1836645,SFO-TN-2007-2241,NONFED,ST-NASF,ST/C&L,USTNTNS,Tennessee Division of Forestry,TDA,Tennessee Department of Agriculture,NA,2241,NA,HALEY ROAD,NA,NA,NA,NA,NA,2007,8689-09-30,237,1234,Lightning,2454337.5,237,1640,3,B,35.7585,-87.322,8,PRIVATE,TN,HICKMAN,081,Hickman,8689,Sep,273,1.3862943611198906
89777,90777,FS-315606,FED,FS-FIRESTAT,FS,USCOSJF,San Juan National Forest,0213,San Juan National Forest,25,NA,NA,FISHTAIL,NA,NA,NA,NA,NA,1996,8678-07-28,173,1700,Lightning,2450256.5,174,1130,0.1,A,37.58805556,-108.54444444,5,USFS,CO,NA,NA,NA,8678,Jul,209,0.09531017980432487
42510,42727,FS-256148,FED,FS-FIRESTAT,FS,USIDNCF,Nez Perce - Clearwater National Forests,0105,Clearwater National Forest,267,NA,NA,NA,NA,NA,NA,NA,NA,1992,8674-09-25,232,1544,Lightning,2448875.5,254,0800,0.1,A,46.28166667,-114.73166667,5,USFS,ID,NA,NA,NA,8674,Sep,268,0.09531017980432487
100616,101691,FS-326573,FED,FS-FIRESTAT,FS,USNMGNF,Gila National Forest,0306,Gila National Forest,212,NA,NA,CLAYTON,NA,NA,NA,NA,NA,1997,8679-08-26,201,0812,Lightning,2450659.5,211,1730,0.1,A,33.37333333,-108.52,5,USFS,NM,NA,NA,NA,8679,Aug,238,0.09531017980432487
349472,358674,W-110901,FED,DOI-WFMI,BLM,USWYCAD,Casper Field Office,WYCAD,Casper Field Office,NA,NA,T758,TURKEY,NA,NA,NA,NA,NA,2002,8684-09-01,208,2100,Lightning,2452482.5,208,2330,11,C,43.43,-106.7439,8,PRIVATE,WY,Natrona,025,Natrona,8684,Sep,245,2.4849066497880004
97220,98277,FS-323155,FED,FS-FIRESTAT,FS,USCAMDF,Modoc National Forest,0509,Modoc National Forest,22,NA,NA,CDF #1,NA,NA,NA,NA,NA,1997,8679-06-15,129,1830,Lightning,2450577.5,129,1917,0.1,A,41.29027778,-121.15111111,5,USFS,CA,NA,NA,NA,8679,Jun,166,0.09531017980432487
1803456,300216595,W-683102,FED,DOI-WFMI,BLM,USUTMOD,Moab Field Office,UTMOD,Moab Field Office,NA,NA,JSP3,WILDCAT,NA,NA,NA,NA,NA,2015,8697-07-20,165,1902,Lightning,2457187.5,165,2050,0.1,A,39.65269,-110.92808,1,BLM,UT,Carbon,007,Carbon,8697,Jul,201,0.09531017980432487
170141,171810,FS-400495,FED,FS-FIRESTAT,FS,USNMCAF,Carson National Forest,0302,Carson National Forest,148,NA,5555,JARITA,NA,NA,NA,NA,NA,2003,8685-07-22,167,1022,Lightning,2452806.5,167,1330,0.2,A,36.46388889,-106.11805556,5,USFS,NM,39,039,Rio Arriba,8685,Jul,203,0.18232155679395465
331039,338739,W-102204,FED,DOI-WFMI,BLM,USMTMCD,Miles City Field Office,MTMCD,Miles City Field Office,NA,NA,H278,JUMPIN JAC,NA,NA,NA,NA,NA,2001,8683-08-27,202,1800,Lightning,2452112.5,203,1335,1,B,45.133,-106.0186,8,PRIVATE,MT,Powder River,075,Powder River,8683,Aug,239,0.6931471805599453
68001,68714,FS-293362,FED,FS-FIRESTAT,FS,USUTDIF,Dixie National Forest,0407,Dixie National Forest,104,NA,NA,NA,NA,NA,NA,NA,NA,1994,8676-09-18,225,1600,Lightning,2449577.5,225,2300,0.1,A,37.53666667,-112.82,5,USFS,UT,NA,NA,NA,8676,Sep,262,0.09531017980432487
229310,233329,W-35199,FED,DOI-WFMI,BLM,USNVSND,Southern Nevada District Office,NVLVD,Las Vegas Field Office,NA,NA,Y496,ECHO 2,NA,NA,NA,NA,NA,1993,8675-10-05,241,1740,Lightning,2449228.5,241,1930,0.1,A,37.9,-114.3175,1,BLM,NV,NA,NA,NA,8675,Oct,278,0.09531017980432487
1581142,201510265,W-636988,FED,DOI-WFMI,BLM,USUTCCD,Cedar City Field Office,UTCCD,Cedar City Field Office,NA,NA,GWH5,BELL 47,NA,NA,NA,NA,NA,2012,8694-07-09,154,1749,Miscellaneous,2456082.5,156,1708,63.5,C,38.2119,-112.8503,8,PRIVATE,UT,Beaver,001,Beaver,8694,Jul,190,4.1666652238017265
369440,381189,FWS-2005MDBWRB7FJ,FED,FWS-FMIS,FWS,USMDBWR,Chesapeake Marshlands National Wildlife Refuge Complex,MDBWR,Chesapeake Marshlands National Wildlife Refuge Complex,NA,NA,B7FJ,BRADLEY RD.,NA,NA,NA,NA,NA,2005,8687-11-02,269,1530,Miscellaneous,2453639.5,269,1930,20,C,38.4725,-75.795,8,PRIVATE,MD,NA,NA,NA,8687,Nov,306,3.044522437723423
362591,373259,FWS-1999CAGRRY417,FED,FWS-FMIS,FWS,USCAGRR,Grasslands Wildlife Management Area,CAGRR,Grasslands Wildlife Management Area,NA,NA,Y417,ROADSIDE,NA,NA,NA,NA,NA,1999,8681-09-15,222,1300,Miscellaneous,2451400.5,222,1330,0.1,A,37.19428223,-120.84024111,6,OTHER FEDERAL,CA,NA,NA,NA,8681,Sep,258,0.09531017980432487
1256602,1659841,SFO-GA-FY2002-Madison-004,NONFED,ST-NASF,ST/C&L,USGAGAS,Georgia Forestry Commission,GAGAS,Georgia Forestry Commission,NA,FY2002-Madison-004,NA,FY2002-MADISON-004,NA,NA,NA,NA,NA,2001,8683-11-25,292,1405,Miscellaneous,2452201.5,292,1405,0.63,B,34.0524,-83.0193,8,PRIVATE,GA,Madison,195,Madison,8683,Nov,329,0.48858001481867097
1054131,1184163,TFS_NC_233233,NONFED,ST-NCNCS,ST/C&L,USNCNCS,North Carolina Forest Service,NCNCS301,NCS Region 3 District 1,NA,03-075,NA,COUNTRY CLUB,NA,NA,NA,NA,NA,2003,8686-01-07,336,NA,Miscellaneous,NA,NA,NA,1,B,35.2,-82.25,14,MISSING/NOT SPECIFIED,NC,NA,NA,NA,8686,Jan,7,0.6931471805599453
1149130,1399999,ALS-NOR-20090725-001,NONFED,ST-ALALS,ST/C&L,USALALS,Alabama Forestry Commission,ALNOR,AFC Northern Region,001,NOR-20090725-001,NA,NA,NA,NA,NA,NA,NA,2009,8691-08-31,206,1541,Miscellaneous,2455037.5,206,1752,12,C,34.602673,-85.627398,14,MISSING/NOT SPECIFIED,AL,DeKalb,049,DeKalb,8691,Aug,243,2.5649493574615367
1066494,1301465,CDF_2006_56_2229_002742      ,NONFED,ST-CACDF,ST/C&L,USCABEU,San Benito-Monterey Unit,CABEU,CDF - San Benito-Monterey Unit,NA,002742      ,NA,CABEU002742              ,NA,NA,NA,NA,NA,2006,8688-08-31,207,NA,Miscellaneous,NA,NA,NA,0.8,B,36.51194444,-121.93194444,14,MISSING/NOT SPECIFIED,CA,NA,NA,NA,8688,Aug,244,0.5877866649021191
1875007,300321860,2009CAIRS12781646,NONFED,ST-CACDF,ST/C&L,USCASLU,San Luis Obispo Unit,CASLU,San Luis Obispo Unit,50198,007680,NA,EAGLE,NA,NA,NA,NA,NA,2009,8691-11-15,282,1349,Miscellaneous,2455113.5,282,1619,1,B,35.428889,-120.708056,14,MISSING/NOT SPECIFIED,CA,NA,NA,NA,8691,Nov,319,0.6931471805599453
887496,1012909,SWRA_LA_15148,NONFED,ST-LALAS,ST/C&L,USLALAS,Louisiana Office of Forestry,LALAS3,LAS District 3,NA,LA3-O5,NA,NA,NA,NA,NA,NA,NA,1998,8680-05-18,102,NA,Miscellaneous,NA,NA,NA,20,C,31.5556,-92.3397,14,MISSING/NOT SPECIFIED,LA,NA,NA,NA,8680,May,139,3.044522437723423
425470,459487,SFO-GA00680505-40-183-0006-11,NONFED,ST-NASF,ST/C&L,USGAGAS,Georgia Forestry Commission,GA Statesboro,"GAS Ogeechee District, Statesboro Office",NA,NA,NA,NA,NA,NA,NA,NA,NA,2005,8687-12-13,310,NA,Miscellaneous,NA,NA,NA,0.48,B,31.8592032,-81.76728172,14,MISSING/NOT SPECIFIED,GA,Long,183,Long,8687,Dec,347,0.3920420877760237
1572274,201500995,W-635785,FED,DOI-WFMI,BIA,USAZSCA,San Carlos Agency,AZSCA,San Carlos Agency,31,NA,GR6T,DEADMAN,NA,NA,NA,NA,NA,2012,8694-05-18,102,1526,Miscellaneous,2456030.5,104,1006,16,C,33.41239,-110.0027,2,BIA,AZ,NA,NA,NA,8694,May,138,2.833213344056216
1296453,1767218,SFO-NY-NY4213-2008-105739,NONFED,ST-NASF,ST/C&L,USNYNYX,Fire Department of New York,NY4213,Fire Department of New York,NA,NY4213-2008-105739,NA,NA,NA,NA,NA,NA,NA,2008,8690-12-23,321,1212,Miscellaneous,2454786.5,321,1212,0.1,A,42.74652449,-73.36758315,14,MISSING/NOT SPECIFIED,NY,RENSSELAER,083,Rensselaer,8690,Dec,357,0.09531017980432487
1396329,19092248,SFO-GA-HAR-22-4/4/1997-1340,NONFED,ST-GAGAS,ST/C&L,USGAGAS,Georgia Forestry Commission,GAGAS,Georgia Forestry Commission,NA,22,NA,NA,NA,NA,NA,NA,NA,1997,8679-05-11,94,1340,Miscellaneous,2450542.5,94,1430,0.94,B,32.7331,-84.8078,8,PRIVATE,GA,Harris              ,145,Harris,8679,May,131,0.6626879730752367
217045,220237,W-5116,FED,DOI-WFMI,BLM,USCACDD,California Desert District,CACDD,California Desert District,NA,NA,U124,POWER,NA,NA,NA,NA,NA,1998,8680-07-28,173,1100,Miscellaneous,2450986.5,173,1230,0.1,A,35.843,-117.9815,1,BLM,CA,NA,NA,NA,8680,Jul,210,0.09531017980432487
1851557,300282123,SFO-2015260162015_112,NONFED,ST-NASF,ST/C&L,USNDNDS,North Dakota State Forest Service,26016,Local Fire Department,NA,2015_112,NA,HELFINSTEIN,NA,NA,NA,NA,NA,2015,8697-02-19,14,1900,Miscellaneous,NA,NA,NA,1,B,46.02,-99.2222,8,PRIVATE,ND,McIntosh,051,McIntosh,8697,Feb,50,0.6931471805599453
358796,368940,W-555269,FED,DOI-WFMI,NPS,USTNGSP,Great Smoky Mountains National Park,TNGSP,Great Smoky Mountains National Park,831,NA,DG20,CATTAIL,NA,NA,NA,NA,NA,2007,8689-07-06,151,1500,Miscellaneous,2454251.5,151,2100,0.1,A,35.510029,-83.979419,3,NPS,TN,NA,NA,NA,8689,Jul,187,0.09531017980432487
795947,902181,SCHMIDT_55014848,NONFED,ST-WIWIS,ST/C&L,USWIWIS,Wisconsin Department of Natural Resources,WIWIS,Wisconsin Department of Natural Resources,NA,NA,NA,NA,NA,NA,NA,NA,NA,1996,8678-09-18,225,1516,Miscellaneous,2450307.5,225,1601,1.5,B,43.8637341,-89.95808473,14,MISSING/NOT SPECIFIED,WI,Juneau,057,Juneau,8678,Sep,261,0.9162907318741551
1304553,1775324,SFO-NY-NY5317-2007-0008194,NONFED,ST-NASF,ST/C&L,USNYNYX,Fire Department of New York,NY5317,Fire Department of New York,NA,NY5317-2007-0008194,NA,NA,NA,NA,NA,NA,NA,2007,8689-09-13,220,1251,Miscellaneous,2454320.5,220,1251,2.5,B,41.78769249,-74.75701902,14,MISSING/NOT SPECIFIED,NY,SULLIVAN,105,Sullivan,8689,Sep,256,1.252762968495368
1447795,19970520,WI-44020051997,NONFED,ST-WIWIS,ST/C&L,USWIWIS,Wisconsin Department of Natural Resources,Dispatch Group 44,Peshtigo District,NA,5,NA,NA,NA,NA,NA,NA,NA,1997,8679-05-14,97,NA,Miscellaneous,NA,NA,NA,3,B,45.304174,-87.76455,14,MISSING/NOT SPECIFIED,WI,38,075,Marinette,8679,May,134,1.3862943611198906
699204,777007,MSARCH_21091,NONFED,ST-MSMSS,ST/C&L,USMSMSS,Mississippi Forestry Commission,MSMSS,Mississippi Forestry Commission,NA,NA,NA,NA,NA,NA,NA,NA,NA,1996,8678-04-10,64,1300,Miscellaneous,2450146.5,64,1400,2,B,31.75106456,-91.1256686,14,MISSING/NOT SPECIFIED,MS,Jefferson,063,Jefferson,8678,Apr,100,1.0986122886681098
1182013,1433245,FS-1491501,FED,FS-FIRESTAT,FS,USCASRF,Six Rivers National Forest,0510,Six Rivers National Forest,033,53 09,FXV7,RIVER,NA,NA,NA,NA,NA,2010,8692-11-22,290,1513,Miscellaneous,2455486.5,290,1709,0.1,A,40.9311111,-123.625278,13,STATE OR PRIVATE,CA,023,023,Humboldt,8692,Nov,327,0.09531017980432487
1575435,201504324,W-644670,FED,DOI-WFMI,BIA,USMTCRA,Crow Agency,MTCRA,Crow Agency,119,NA,G6YH,EAGLE SPRINGS,NA,NA,NA,NA,NA,2012,8694-10-01,238,1205,Miscellaneous,2456164.5,238,1647,59.4,C,45.6461,-107.6868,2,BIA,MT,NA,NA,NA,8694,Oct,274,4.100989104940769
1787577,300147743,SFO-2014AZAZS-AZ-141892,NONFED,ST-NASF,ST/C&L,USAZAZS,Arizona State Forestry Division - State Office,AZAZS,Arizona State Forestry Division - State Office,NA,AZ-141892,NA,AZ-141892,NA,NA,NA,NA,NA,2014,8696-07-28,173,1953,Missing/Undefined,2456830.5,173,2003,0.1,A,33.4503,-112.0271,14,MISSING/NOT SPECIFIED,AZ,Maricopa,013,Maricopa,8696,Jul,210,0.09531017980432487
743322,842743,SC_20479,NONFED,ST-SCSCS,ST/C&L,USSCSCS,South Carolina Forestry Commission,SCSCS,South Carolina Forestry Commission,NA,NA,NA,NA,NA,NA,NA,NA,NA,1993,8675-07-12,156,NA,Missing/Undefined,2449143.5,156,1145,12,C,33.84166667,-80.3375,14,MISSING/NOT SPECIFIED,SC,43,085,Sumter,8675,Jul,193,2.5649493574615367
465998,501076,SFO-ID0043_9901998079,NONFED,ST-NASF,ST/C&L,USIDIDS,Idaho Department of Lands,ID990,IDS District 990,NA,NA,NA,NA,NA,NA,NA,NA,NA,1998,8680-10-13,250,NA,Missing/Undefined,NA,NA,NA,0.1,A,46.762172,-115.85129,14,MISSING/NOT SPECIFIED,ID,Clearwater,035,Clearwater,8680,Oct,287,0.09531017980432487
468511,503872,SFO-KY00080404-081-00120,NONFED,ST-NASF,ST/C&L,USKYKYS,Kentucky Division of Forestry,KYKYS1,KYS Bluegrass District,NA,NA,NA,NA,NA,NA,NA,NA,NA,2004,8686-04-05,59,NA,Missing/Undefined,NA,NA,NA,3,B,38.73672997,-84.73391998,14,MISSING/NOT SPECIFIED,KY,Grant,081,Grant,8686,Apr,95,1.3862943611198906
728268,827137,SC_4824,NONFED,ST-SCSCS,ST/C&L,USSCSCS,South Carolina Forestry Commission,SCSCS,South Carolina Forestry Commission,NA,NA,NA,NA,NA,NA,NA,NA,NA,1996,8678-03-22,45,NA,Missing/Undefined,2450127.5,45,1154,1.5,B,33.025,-81.32916667,14,MISSING/NOT SPECIFIED,SC,5,005,Allendale,8678,Mar,81,0.9162907318741551
774389,877787,SCHMIDT_56145195,NONFED,ST-WYWYS,ST/C&L,USWYWYS,Wyoming State Forestry,WYWYS,Wyoming State Forestry,NA,NA,NA,NA,NA,NA,NA,NA,NA,1995,8677-09-05,212,NA,Missing/Undefined,NA,NA,NA,0.5,B,42.88779825,-106.5466997,14,MISSING/NOT SPECIFIED,WY,Natrona,025,Natrona,8677,Sep,248,0.4054651081081644
659548,720724,SFO-UT0287-026214,NONFED,ST-NASF,ST/C&L,USUTUTS,Utah Division Forestry Fire State Lands,UTUTS,Utah Division Forestry Fire State Lands,NA,NA,NA,NA,NA,NA,NA,NA,NA,2007,8689-08-23,199,NA,Missing/Undefined,NA,NA,NA,0.1,A,37.39315602,-112.29115204,14,MISSING/NOT SPECIFIED,UT,Kane,025,Kane,8689,Aug,235,0.09531017980432487
569493,614515,SFO-OK0450-30158_03141530,NONFED,ST-NASF,ST/C&L,USOKOKS,Oklahoma Division of Forestry,OKOK31,OKS District 31,NA,NA,NA,NA,NA,NA,NA,NA,NA,2008,8690-04-21,75,NA,Missing/Undefined,NA,NA,NA,0.3,B,35.7496,-94.86333,14,MISSING/NOT SPECIFIED,OK,Cherokee,021,Cherokee,8690,Apr,111,0.26236426446749106
738942,838180,SC_15900,NONFED,ST-SCSCS,ST/C&L,USSCSCS,South Carolina Forestry Commission,SCSCS,South Carolina Forestry Commission,NA,NA,NA,NA,NA,NA,NA,NA,NA,1994,8676-06-16,131,NA,Missing/Undefined,2449483.5,131,NA,5,B,33.80833333,-80.6875,14,MISSING/NOT SPECIFIED,SC,40,079,Richland,8676,Jun,168,1.791759469228055
722354,820156,NM95-40630466X,NONFED,ST-NMNMS,ST/C&L,USNMNMS,New Mexico - State Forestry,NMNMS,New Mexico - State Forestry,NA,40630466X,NA,KRIDER,NA,NA,NA,NA,NA,1994,8676-09-18,225,NA,Missing/Undefined,NA,NA,NA,0.5,B,34.42638778,-103.69499969,8,PRIVATE,NM,NA,NA,NA,8676,Sep,262,0.4054651081081644
1866994,300302147,HIWMO-OA6088,INTERAGCY,IA-HIWMO,ST/C&L,USHICNTY,Hawaii Counties,HICNTY,Honolulu Fire Dept,NA,NA,NA,NA,NA,NA,NA,NA,NA,2004,8686-10-10,247,NA,Missing/Undefined,NA,NA,NA,0.1,A,21.2862968,-157.8393097,14,MISSING/NOT SPECIFIED,HI,Oahu,003,Honolulu,8686,Oct,283,0.09531017980432487
1735195,300025494,W-674071,FED,DOI-WFMI,BIA,USSDCRA,Cheyenne River Agency,SDCRA,Cheyenne River Agency,54,NA,FE7Y,BEE TREE,NA,NA,NA,NA,NA,2014,8696-11-05,273,0915,Powerline,2456930.5,273,1350,0.1,A,45.0058,-101.2377,9,TRIBAL,SD,NA,NA,NA,8696,Nov,310,0.09531017980432487
490520,527732,SFO-MN0349-5785,NONFED,ST-NASF,ST/C&L,USMNMNS,Minnesota Department of Natural Resources,MNMNS,Minnesota Department of Natural Resources,NA,NA,NA,NA,NA,NA,NA,NA,NA,2005,8687-06-11,125,NA,Railroad,NA,NA,NA,0.2,A,47.01090632,-92.58414714,14,MISSING/NOT SPECIFIED,MN,St. Louis,137,St. Louis,8687,Jun,162,0.18232155679395465
970520,1098905,TFS_FL_49766,NONFED,ST-FLFLS,ST/C&L,USFLFLS,Florida Forest Service,FLFLS7,FLS Jacksonville District,NA,0206,NA,NA,NA,NA,NA,NA,NA,1998,8680-07-23,168,NA,Railroad,NA,NA,NA,2,B,30.16,-81.94,14,MISSING/NOT SPECIFIED,FL,Clay,019,Clay,8680,Jul,205,1.0986122886681098
1239308,1642400,SFO-GA-FY2000-McDuffie-064,NONFED,ST-NASF,ST/C&L,USGAGAS,Georgia Forestry Commission,GAGAS,Georgia Forestry Commission,NA,FY2000-McDuffie-064,NA,FY2000-MCDUFFIE-064,NA,NA,NA,NA,NA,2000,8682-04-15,69,1700,Smoking,2451612.5,69,1700,0.43,B,33.3494,-82.4809,14,MISSING/NOT SPECIFIED,GA,McDuffie,189,McDuffie,8682,Apr,105,0.3576744442718159
439097,473230,SFO-GA01150606-38-035-0040-06,NONFED,ST-NASF,ST/C&L,USGAGAS,Georgia Forestry Commission,GA Newnan,"GAS Chattahoochee District, Newnan Office",NA,NA,NA,NA,NA,NA,NA,NA,NA,2006,8688-07-21,166,NA,Smoking,NA,NA,NA,0.15,A,33.27878971,-83.92042578,14,MISSING/NOT SPECIFIED,GA,Butts,035,Butts,8688,Jul,203,0.13976194237515868
1654644,201813042,SFO-2013CACDFFKU008612,NONFED,ST-NASF,ST/C&L,USCAFKU,Fresno-Kings Unit,CAFKU,CDF - Fresno-Kings Unit,NA,FKU008612,NA,VINO,NA,NA,NA,NA,NA,2013,8695-08-07,182,0010,Smoking,2456474.5,182,0027,0.1,A,36.658483,-119.4467,14,MISSING/NOT SPECIFIED,CA,FRESNO,019,Fresno,8695,Aug,219,0.09531017980432487
